City,Country,Lat,Lng,Max Temp,Humidity,Cloudiness,Wind Speed,Date
Atuona,PF,-9.8,-139.03,81.46,73,13,14.43,1588814312
Punta Arenas,CL,-53.15,-70.92,41.0,93,75,2.24,1588814426
Kavaratti,IN,10.57,72.64,85.59,71,95,4.65,1588814345
Kaitangata,NZ,-46.28,169.85,59.59,62,42,13.82,1588814427
Thompson,CA,55.74,-97.86,33.8,37,5,11.41,1588814427
Butaritari,KI,3.07,172.79,83.91,77,95,10.18,1588814427
Albany,US,42.6,-73.97,52.0,66,100,3.85,1588814187
Vaini,TO,-21.2,-175.2,80.6,83,75,10.29,1588814427
Barrow,US,71.29,-156.79,12.2,85,1,11.41,1588814164
Port Alfred,ZA,-33.59,26.89,62.58,81,0,4.52,1588814308
Ushuaia,AR,-54.8,-68.3,42.8,75,90,2.24,1588814428
Chui,UY,-33.7,-53.46,52.93,85,57,9.66,1588814426
Bluff,NZ,-46.6,168.33,54.7,81,52,30.06,1588814319
Clarence Town,AU,-32.58,151.78,66.0,68,100,8.05,1588814429
Camocim,BR,-2.9,-40.84,78.39,87,0,11.95,1588814429
Goderich,CA,43.75,-81.72,43.0,63,0,4.21,1588814429
Nikolskoye,RU,59.7,30.79,42.01,86,35,11.18,1588814430
Sonoita,MX,31.85,-112.83,100.99,5,0,8.99,1588814430
Souillac,MU,-20.52,57.52,71.6,100,40,3.36,1588814243
Kapaa,US,22.08,-159.32,78.8,74,1,14.99,1588814431
Vostok,RU,46.49,135.88,56.21,36,0,8.12,1588814431
Lac du Bonnet,CA,50.25,-96.06,44.01,35,0,5.01,1588814431
Heraclea,TR,37.51,34.05,52.03,50,13,2.26,1588814431
Yeppoon,AU,-23.13,150.73,77.0,50,100,13.87,1588814431
Qaanaaq,GL,77.48,-69.36,13.55,91,100,5.66,1588814314
Cabedelo,BR,-6.98,-34.83,75.2,100,20,12.93,1588814432
Zharkent,KZ,44.16,80.0,58.28,32,0,7.74,1588814432
Busselton,AU,-33.65,115.33,55.99,91,100,1.99,1588814315
Cape Town,ZA,-33.93,18.42,59.0,93,15,4.7,1588814327
Stornoway,GB,58.21,-6.39,37.4,93,0,1.59,1588814433
Mataura,NZ,-46.19,168.86,56.89,72,90,9.26,1588814433
Torbay,CA,47.67,-52.73,37.0,93,90,13.87,1588814433
Bengkulu,ID,-3.8,102.27,79.43,86,100,4.32,1588814398
Hermanus,ZA,-34.42,19.23,66.0,67,0,9.31,1588814310
Lüderitz,NA,-26.65,15.16,73.8,24,0,6.55,1588814434
Yerbogachën,RU,61.28,108.01,29.98,92,100,9.13,1588814435
Lerwick,GB,60.15,-1.15,46.4,75,100,12.75,1588814319
Long Beach,US,33.77,-118.19,84.99,21,1,12.75,1588814373
Rikitea,PF,-23.12,-134.97,74.88,63,100,10.85,1588814319
Port Blair,IN,11.67,92.75,84.31,77,75,7.36,1588814436
Krasnosel'kup,RU,65.7,82.47,32.41,98,100,7.25,1588814436
Itoman,JP,26.12,127.67,80.6,65,75,16.11,1588814436
Half Moon Bay,US,37.46,-122.43,78.01,29,5,11.41,1588814252
São Geraldo do Araguaia,BR,-6.4,-48.55,75.24,92,100,2.08,1588814437
Avarua,CK,-21.21,-159.78,82.4,78,40,3.36,1588814437
New Norfolk,AU,-42.78,147.06,55.0,78,100,4.18,1588814311
Yarkovo,RU,57.4,67.08,55.27,59,0,5.26,1588814437
Khatanga,RU,71.97,102.5,11.82,90,100,13.47,1588814349
Ober-Ramstadt,DE,49.83,8.75,46.99,86,0,2.01,1588814438
Romitan,UZ,39.93,64.38,62.6,88,100,4.7,1588814438
Lake City,US,30.19,-82.64,71.6,46,1,6.93,1588814438
Katsina,NG,12.99,7.6,76.57,15,0,5.79,1588814439
Saint Paul Harbor,US,57.79,-152.41,48.2,70,40,11.41,1588814439
Cherskiy,RU,68.75,161.3,33.87,88,100,6.73,1588814439
Chystyakove,UA,48.04,38.6,48.36,98,18,4.32,1588814439
Whitehorse,CA,60.72,-135.05,57.2,24,75,9.17,1588814440
Beringovskiy,RU,63.05,179.32,32.72,95,95,11.43,1588814317
Hearst,CA,49.68,-83.67,29.25,96,0,4.61,1588814440
Banda Aceh,ID,5.56,95.32,83.23,72,84,5.03,1588814174
Malakal,SS,9.53,31.66,86.63,41,99,3.85,1588814441
Mount Gambier,AU,-37.83,140.77,62.6,42,90,14.99,1588814441
George Town,MY,5.41,100.34,84.2,83,20,3.36,1588814441
Hilo,US,19.73,-155.09,82.4,58,20,12.75,1588814441
Guarapari,BR,-20.67,-40.5,75.2,83,100,4.7,1588814442
Iranshahr,IR,27.2,60.68,78.8,27,60,4.7,1588814213
Yellowknife,CA,62.46,-114.35,48.2,42,75,12.75,1588814442
Santa Maria,BR,-29.68,-53.81,53.6,71,40,3.36,1588814272
Inhambane,MZ,-23.86,35.38,68.65,87,0,8.99,1588814443
Saskylakh,RU,71.92,114.08,3.33,92,67,6.62,1588814311
Guerrero Negro,MX,27.98,-114.06,73.63,55,0,16.93,1588814414
Iqaluit,CA,63.75,-68.51,12.2,78,40,5.82,1588814282
Hervey Bay,AU,-25.3,152.85,75.0,68,27,4.0,1588814444
Tasiilaq,GL,65.61,-37.64,30.2,80,0,14.99,1588814444
Ambilobe,MG,-13.2,49.05,70.97,83,27,2.82,1588814444
Ampanihy,MG,-24.7,44.75,61.75,97,9,2.98,1588814312
Pisco,PE,-13.7,-76.22,68.0,77,100,8.05,1588814444
San Patricio,MX,19.22,-104.7,78.8,83,20,11.41,1588814445
Jamestown,US,42.1,-79.24,42.8,41,1,4.7,1588814445
Lhokseumawe,ID,5.18,97.15,82.36,78,100,4.92,1588814445
Belmonte,BR,-15.86,-38.88,75.2,83,40,4.7,1588814445
Shelburne,CA,44.08,-80.2,48.0,44,1,3.36,1588814446
Acajutla,SV,13.59,-89.83,87.8,55,40,3.36,1588814436
Kiama,AU,-34.68,150.87,70.0,44,100,5.01,1588814446
Bulgan,MN,48.81,103.53,39.63,71,83,4.81,1588814447
Stranda,NO,62.31,6.94,32.0,89,98,3.0,1588814447
Dikson,RU,73.51,80.55,5.34,93,93,8.66,1588814447
Sangar,RU,63.92,127.47,35.42,93,100,12.24,1588814447
Kulhudhuffushi,MV,6.62,73.07,84.33,76,72,5.46,1588814448
Stargard,PL,53.34,15.05,48.2,81,75,14.99,1588814448
Bambous Virieux,MU,-20.34,57.76,73.0,100,40,3.36,1588814449
Shenkursk,RU,62.11,42.9,51.96,95,100,4.97,1588814449
Bredasdorp,ZA,-34.53,20.04,51.8,87,98,2.24,1588814449
Channel-Port aux Basques,CA,47.57,-59.14,32.74,95,100,23.02,1588814449
Mumford,GH,5.26,-0.76,81.28,85,100,8.43,1588814450
Chokurdakh,RU,70.63,147.92,26.53,98,92,6.82,1588814181
Talara,PE,-4.58,-81.27,72.27,79,33,10.36,1588814450
Sahuaripa,MX,29.05,-109.23,104.0,8,78,11.61,1588814450
Nuuk,GL,64.18,-51.72,32.0,86,100,11.41,1588814451
Semibratovo,RU,57.3,39.54,55.4,93,47,6.71,1588814451
Socorro,US,31.65,-106.3,93.2,9,5,5.82,1588814451
Amecameca,MX,19.12,-98.77,86.0,67,90,2.91,1588814451
Northam,GB,51.03,-4.22,51.01,65,1,10.0,1588814264
Tura,IN,25.52,90.22,77.5,65,0,4.0,1588814227
Bafoulabé,ML,13.81,-10.83,88.99,32,29,3.2,1588814452
Baykit,RU,61.67,96.37,42.78,64,68,2.15,1588814452
Kutina,HR,45.48,16.78,41.0,86,0,4.7,1588814452
Jaciara,BR,-15.97,-54.97,68.92,95,93,3.11,1588814453
Longyearbyen,SJ,78.22,15.64,32.0,93,40,16.11,1588814453
Quelimane,MZ,-17.88,36.89,73.4,88,75,2.24,1588814453
Salalah,OM,17.02,54.09,82.4,83,20,5.82,1588814453
Saint George,US,37.1,-113.58,91.0,7,1,8.05,1588814453
Mooresville,US,35.58,-80.81,52.0,66,16,8.93,1588814164
Diré,ML,12.28,-10.97,87.31,41,97,2.82,1588814454
Tuktoyaktuk,CA,69.45,-133.04,23.0,79,75,12.75,1588814310
Keokuk,US,40.4,-91.38,57.2,54,90,8.05,1588814454
Chengdu,CN,30.67,104.07,78.01,88,40,11.18,1588814162
Nyagan,RU,62.14,65.39,47.82,85,1,7.56,1588814455
Caravelas,BR,-17.71,-39.25,75.99,78,30,7.81,1588814455
Demirci,TR,39.05,28.66,50.59,79,88,3.58,1588814455
Golden,US,39.76,-105.22,66.0,33,75,10.29,1588814456
Bandarbeyla,SO,9.49,50.81,82.44,74,98,6.42,1588814456
Atar,MR,20.52,-13.05,85.32,14,0,7.99,1588814456
Byron Bay,AU,-28.65,153.62,73.0,60,0,6.93,1588814456
Richards Bay,ZA,-28.78,32.04,66.16,79,95,7.67,1588814309
Springbok,ZA,-29.66,17.89,59.61,31,0,5.55,1588814457
Upernavik,GL,72.79,-56.15,19.85,94,100,8.32,1588814457
East London,ZA,-33.02,27.91,64.53,80,8,4.65,1588814457
Hithadhoo,MV,-0.6,73.08,84.0,78,86,10.51,1588814458
Dzaoudzi,YT,-12.79,45.27,82.4,83,75,14.99,1588814458
Esperance,AU,-33.87,121.9,51.8,71,90,17.22,1588814314
Faya,SA,18.39,42.45,64.4,77,75,2.93,1588814458
Vila Franca do Campo,PT,37.72,-25.43,62.6,93,40,8.05,1588814459
Jequié,BR,-13.86,-40.08,69.98,90,89,1.63,1588814459
Pitimbu,BR,-7.47,-34.81,75.2,100,20,12.37,1588814459
Hong Kong,HK,22.29,114.16,84.0,74,72,5.99,1588814459
Port Hardy,CA,50.7,-127.42,51.8,76,75,9.17,1588814460
Mar del Plata,AR,-38.0,-57.56,54.0,100,75,3.36,1588814374
Kampot,KH,10.62,104.18,89.6,66,20,4.7,1588814443
Mount Isa,AU,-20.73,139.5,80.6,34,0,12.75,1588814460
Nemuro,JP,43.32,145.57,41.0,86,75,6.93,1588814461
Saldanha,ZA,-33.01,17.94,60.8,67,99,1.12,1588814461
Porangatu,BR,-13.44,-49.15,72.9,90,100,2.17,1588814461
Thaba-Tseka,LS,-29.52,28.61,40.05,69,0,1.16,1588814406
Aykhal,RU,66.0,111.5,14.0,61,100,8.95,1588814461
Kenai,US,60.55,-151.26,60.8,29,1,17.22,1588814462
Port Elizabeth,ZA,-33.92,25.57,62.6,88,40,6.93,1588814450
Tevriz,RU,57.51,72.4,54.5,73,74,5.73,1588814462
Cidreira,BR,-30.18,-50.21,59.38,71,16,14.0,1588814463
Tanout,NE,14.97,8.89,78.28,15,0,9.95,1588814463
Touros,BR,-5.2,-35.46,75.2,94,20,4.7,1588814463
Gejiu,CN,23.31,103.16,69.96,61,85,6.87,1588814463
Severo-Kuril'sk,RU,50.68,156.12,37.72,76,0,16.35,1588814464
Vardø,NO,70.37,31.11,35.91,84,61,18.68,1588814188
Serenje,ZM,-13.23,30.24,55.06,86,32,8.1,1588814464
Kahului,US,20.89,-156.47,82.4,58,40,18.34,1588814354
Mazamet,FR,43.49,2.37,57.2,81,7,4.7,1588814464
Westport,US,41.14,-73.36,46.4,75,90,2.71,1588814390
Saint Anthony,US,45.02,-93.22,63.0,23,75,9.17,1588814202
Qaţanā,SY,33.44,36.08,51.8,87,99,14.99,1588814465
Carnarvon,AU,-24.87,113.63,62.38,57,0,21.34,1588814466
Hobart,AU,-42.88,147.33,59.0,71,75,8.05,1588814403
Copiapó,CL,-27.37,-70.33,59.0,82,90,3.36,1588814366
Coari,BR,-4.08,-63.14,74.43,96,100,6.33,1588814466
Jalu,LY,29.03,21.55,64.76,27,0,2.51,1588814467
Ascension,US,30.22,-90.9,75.99,55,0,8.59,1588814389
Namatanai,PG,-3.67,152.43,86.0,64,51,2.73,1588814467
Okha,RU,53.57,142.95,45.12,58,0,8.46,1588814467
Dingle,PH,11.0,122.67,89.42,57,87,5.84,1588814275
Dhidhdhoo,MV,6.88,73.1,84.42,77,24,4.56,1588814464
Elko,US,41.0,-115.5,66.2,13,1,16.11,1588814468
Saint-Philippe,RE,-21.36,55.77,73.4,78,20,6.93,1588814168
Chulym,RU,55.1,80.96,51.42,71,100,14.83,1588814468
Leningradskiy,RU,69.38,178.42,31.15,92,81,6.53,1588814469
Ilulissat,GL,69.22,-51.1,30.2,58,0,4.7,1588814469
Yangi Marg`ilon,UZ,40.43,71.72,60.8,59,0,4.7,1588814469
Nanortalik,GL,60.14,-45.24,39.24,83,100,4.29,1588814469
Raja,SS,8.46,25.68,79.23,65,100,6.51,1588814469
Moussoro,TD,13.64,16.49,84.58,22,0,12.15,1588814470
Yulara,AU,-25.24,130.99,71.6,11,0,8.9,1588814315
Fairbanks,US,64.84,-147.72,64.4,25,75,12.75,1588814401
Gobabis,NA,-22.45,18.97,57.61,36,0,6.87,1588814470
Homer,US,59.64,-151.55,53.01,53,1,13.87,1588814471
Saint-Leu,RE,-21.15,55.28,73.4,78,20,6.93,1588814471
Provideniya,RU,64.38,-173.3,28.4,79,90,2.24,1588814471
Asău,RO,46.43,26.4,46.0,67,88,15.21,1588814472
Havre-St-Pierre,CA,50.23,-63.6,32.0,85,90,8.05,1588814472
Luanda,AO,-8.84,13.23,80.6,88,20,4.7,1588814245
Vaitape,PF,-16.52,-151.75,83.07,75,100,16.13,1588814472
Makhachkala,RU,42.98,47.5,60.8,93,75,17.9,1588814473
Nizhniy Odes,RU,63.64,54.86,49.37,84,0,9.48,1588814473
Gloucester,GB,51.87,-2.24,46.0,79,0,3.98,1588814334
Watsa,CD,3.04,29.54,65.7,100,100,1.28,1588814473
Jackson,US,42.42,-122.83,69.01,24,1,6.93,1588814473
Camaná,PE,-16.62,-72.71,67.64,74,51,3.94,1588814474
Mossamedes,AO,-15.2,12.15,78.33,77,73,1.57,1588814474
Palencia,ES,42.42,-4.5,57.0,88,100,3.0,1588814474
Comodoro Rivadavia,AR,-45.87,-67.5,60.8,55,100,13.87,1588814188
Norman Wells,CA,65.28,-126.83,44.6,56,20,16.11,1588814475
Lagoa,PT,39.05,-27.98,62.31,92,76,11.92,1588814475
Sanguéya,GN,10.7,-14.37,79.48,82,37,3.76,1588814284
Castro,BR,-24.79,-50.01,51.12,92,62,6.2,1588814475
Mehamn,NO,71.04,27.85,34.97,93,100,12.95,1588814476
Adrar,MR,20.5,-10.07,88.99,12,0,5.97,1588814476
Mankono,CI,8.06,-6.19,75.09,94,88,2.13,1588814476
Uruguaiana,BR,-29.75,-57.09,53.6,81,4,3.36,1588814476
Ishinomaki,JP,38.42,141.3,60.8,41,75,17.22,1588814476
Puerto Ayora,EC,-0.74,-90.35,77.0,93,46,1.99,1588814317
Lavrentiya,RU,65.58,-171.0,28.51,88,0,1.68,1588814213
Vestmannaeyjar,IS,63.44,-20.27,44.46,85,93,12.97,1588814477
Páez,CO,5.1,-73.05,66.22,89,100,1.88,1588814477
Sioux Lookout,CA,50.1,-91.92,42.8,30,20,11.41,1588814478
Angoram,PG,-4.06,144.07,85.55,70,100,3.6,1588814478
Zambezi,ZM,-13.54,23.1,58.57,68,0,4.47,1588814478
Vila do Maio,CV,15.13,-23.22,73.4,73,20,13.87,1588814478
Aktau,KZ,43.65,51.2,77.0,31,40,20.13,1588814374
Quatre Cocos,MU,-20.21,57.76,73.0,100,40,3.36,1588814479
Paamiut,GL,61.99,-49.67,37.63,93,100,2.64,1588814479
Tocopilla,CL,-22.09,-70.2,64.38,64,0,3.11,1588814479
Hadejia,NG,12.45,10.04,79.27,15,0,5.53,1588814480
Bubaque,GW,11.28,-15.83,78.76,78,0,14.36,1588814234
Saktī,IN,22.03,82.97,83.97,29,0,3.98,1588814480
Zhigansk,RU,66.77,123.37,18.09,94,92,28.05,1588814191
Henties Bay,NA,-22.12,14.28,73.99,25,0,3.62,1588814465
Umm Hājar,TD,13.3,19.7,85.05,39,1,9.48,1588814481
Fort Nelson,CA,58.81,-122.7,62.6,29,75,4.7,1588814481
Astoria,US,46.19,-123.83,57.0,58,20,8.05,1588814481
Barranca,PE,-10.75,-77.77,67.64,78,100,5.73,1588814481
Viedma,AR,-40.81,-63.0,51.73,49,70,10.47,1588814482
Los Llanos de Aridane,ES,28.66,-17.92,66.2,68,75,4.7,1588814482
Bonoua,CI,5.27,-3.6,82.4,88,20,2.24,1588814482
Kavieng,PG,-2.57,150.8,85.03,69,18,6.64,1588814482
Horsham,GB,51.06,-0.33,45.0,93,0,3.36,1588814483
Beira,MZ,-19.84,34.84,71.73,79,83,6.15,1588814483
Malbork,PL,54.04,19.03,44.01,100,0,8.05,1588814483
Flinders,AU,-34.58,150.86,70.0,63,100,5.01,1588814208
Gilgit,PK,35.92,74.31,55.17,36,0,4.56,1588814484
Honiara,SB,-9.43,159.95,87.8,70,75,8.05,1588814251
Caxito,AO,-8.58,13.66,80.6,88,20,4.7,1588814484
Clyde River,CA,70.47,-68.59,5.0,92,1,3.36,1588814484
Usinsk,RU,65.99,57.53,40.77,98,100,12.75,1588814484
Mahébourg,MU,-20.41,57.7,71.6,100,40,3.36,1588814485
Marawi,PH,8.0,124.29,84.0,79,35,8.01,1588814485
Batemans Bay,AU,-35.72,150.18,63.0,77,100,4.38,1588814441
Turukhansk,RU,65.82,87.98,32.79,93,0,9.82,1588814486
Portland,US,45.52,-122.68,64.0,33,40,11.41,1588814482
Arraial do Cabo,BR,-22.97,-42.03,75.2,94,75,12.75,1588814199
Berlevåg,NO,70.86,29.09,33.98,89,77,14.43,1588814487
San Cristobal,VE,7.77,-72.22,69.08,84,99,2.8,1588814487
Poum,NC,-20.23,164.02,72.9,77,63,14.14,1588814487
Hare Bay,CA,48.85,-54.01,37.4,93,90,9.17,1588814487
Raymondville,US,26.48,-97.78,80.6,65,1,11.41,1588814487
Grindavik,IS,63.84,-22.43,42.8,100,90,17.22,1588814488
Dunedin,NZ,-45.87,170.5,60.01,57,99,10.87,1588814488
Sars,RU,56.55,57.14,53.15,69,100,4.9,1588814488
Luleå,SE,65.58,22.15,33.8,74,0,2.24,1588814488
Antananarivo,MG,-18.91,47.54,62.6,93,40,2.24,1588814489
Coquimbo,CL,-29.95,-71.34,55.4,93,90,6.93,1588814214
Tabuny,RU,52.78,78.79,53.71,43,0,10.36,1588814489
Barra de Tecoanapa,MX,16.52,-98.75,80.69,72,0,5.21,1588814489
Quixadá,BR,-4.97,-39.02,73.17,93,2,3.42,1588814490
Luganville,VU,-15.53,167.17,75.2,73,90,11.41,1588814490
Tual,ID,-5.67,132.75,82.98,78,50,22.19,1588814490
Pangody,RU,65.85,74.49,20.48,97,100,6.04,1588814490
Yatou,CN,37.15,122.38,64.47,39,100,8.95,1588814490
Cabo San Lucas,MX,22.89,-109.91,86.0,12,5,11.41,1588814491
Ancud,CL,-41.87,-73.82,51.01,100,38,1.12,1588814393
Forsytheganj,BY,52.63,29.73,49.77,96,82,8.3,1588814491
Rovnoye,RU,50.78,46.05,55.11,81,100,5.28,1588814491
Maridi,SS,4.92,29.47,68.81,89,100,3.09,1588814492
Burns Lake,CA,54.23,-125.75,51.26,45,100,10.54,1588814490
Sept-Îles,CA,50.2,-66.38,57.2,50,20,9.17,1588814492
Linqiong,CN,30.42,103.46,78.01,100,40,6.71,1588814492
Leh,IN,34.17,77.58,33.24,79,100,2.82,1588814493
Cortes,ES,41.94,-1.44,60.8,82,100,3.36,1588814493
Pevek,RU,69.7,170.31,33.03,88,100,18.12,1588814493
Chumikan,RU,54.72,135.31,49.75,49,23,12.57,1588814494
Saryozek,KZ,44.36,77.98,50.88,46,1,5.28,1588814494
Saint-Louis,SN,16.33,-15.0,84.2,35,42,2.24,1588814494
Tegul'det,RU,57.31,88.17,49.21,90,100,10.45,1588814495
Hasaki,JP,35.73,140.83,68.0,48,20,13.87,1588814495
Port Macquarie,AU,-31.43,152.92,70.0,69,100,1.99,1588814496
Lorengau,PG,-2.02,147.27,84.92,71,30,5.66,1588814196
Brae,GB,60.4,-1.35,46.4,75,100,11.41,1588814496
Alofi,NU,-19.06,-169.92,84.2,79,88,5.82,1588814496
Niltepec,MX,16.57,-94.62,86.32,54,44,11.36,1588814497
Otjiwarongo,NA,-20.46,16.65,55.11,40,0,10.04,1588814497
Dulce Grande,MX,23.0,-102.17,73.4,35,40,11.41,1588814497
Ahar,IR,38.48,47.07,44.29,74,2,8.01,1588814497
Dosso,NE,13.05,3.19,90.21,11,36,11.03,1588814497
Laredo,US,27.51,-99.51,86.0,58,90,13.87,1588814498
Birjand,IR,32.87,59.22,64.4,35,85,9.17,1588814498
Old Town,US,44.93,-68.65,48.2,49,75,4.7,1588814498
Coahuayana Viejo,MX,18.73,-103.68,79.88,60,0,3.38,1588814498
Peniche,PT,39.36,-9.38,61.0,88,100,5.01,1588814499
Lebu,CL,-37.62,-73.65,57.25,74,63,17.38,1588814206
Ust-Nera,RU,64.57,143.2,32.63,91,93,2.46,1588814499
Disna,BY,55.57,28.2,42.28,83,100,10.76,1588814499
Suntar,RU,62.14,117.63,34.39,86,100,8.9,1588814500
Carutapera,BR,-1.2,-46.02,77.94,89,100,6.02,1588814500
Isangel,VU,-19.55,169.27,71.6,88,90,11.41,1588814500
Mackenzie,CA,55.3,-123.17,48.2,70,90,4.56,1588814500
Ozernovskiy,RU,51.5,156.52,32.88,96,100,17.16,1588814501
Makakilo City,US,21.35,-158.09,86.0,42,1,8.97,1588814501
Bandiagara,ML,14.35,-3.61,95.0,26,2,6.93,1588814501
Biltine,TD,14.53,20.92,82.99,38,2,7.81,1588814501
Bull Savanna,JM,17.89,-77.59,77.07,85,93,7.63,1588814502
Umluj,SA,25.02,37.27,72.03,56,100,9.86,1588814502
Meadow Lake,US,34.8,-106.54,84.2,11,40,14.99,1588814502
Mitha Tiwana,PK,32.25,72.11,75.81,45,0,8.66,1588814502
Iberia,US,29.95,-91.75,73.4,49,1,8.05,1588814503
Muzaffargarh,PK,30.08,71.19,75.2,53,0,6.93,1588814503
Codrington,AU,-38.27,141.97,66.15,39,100,21.72,1588814503
Noumea,NC,-22.28,166.46,69.8,83,100,19.46,1588814503
Tiksi,RU,71.69,128.87,20.97,96,95,10.76,1588814503
Virginia Beach,US,36.85,-75.98,55.0,87,90,13.87,1588814339
Bethel,US,41.37,-73.41,46.0,81,90,6.93,1588814297
Emilio Carranza,MX,19.97,-96.61,80.64,72,2,7.78,1588814504
Kitimat,CA,54.05,-128.65,53.01,72,81,1.01,1588814504
Anamur,TR,36.08,32.84,64.56,65,0,9.98,1588814505
Ust'-Karsk,RU,52.7,118.81,53.51,39,26,14.25,1588814505
Bambanglipuro,ID,-7.95,110.28,79.59,79,100,2.3,1588814505
Kyzyl-Suu,KG,42.34,78.0,47.93,43,42,6.38,1588814505
Praia da Vitória,PT,38.73,-27.07,62.6,88,75,8.88,1588814506
Apozol,MX,21.48,-103.1,82.4,26,21,13.8,1588814506
Ahipara,NZ,-35.17,173.17,63.73,67,45,8.08,1588814506
Kiryat Gat,IL,31.61,34.76,60.01,79,0,3.0,1588814262
Fortuna,US,40.6,-124.16,59.0,67,20,12.75,1588814507
Ariquemes,BR,-9.91,-63.04,72.63,98,100,5.21,1588814507
Airai,TL,-8.93,125.41,68.74,94,37,3.98,1588814507
Ambon City,ID,-3.7,128.18,87.8,70,20,4.7,1588814507
Upata,VE,8.01,-62.4,81.0,76,63,5.01,1588814508
Gympie,AU,-26.19,152.66,75.83,51,24,7.31,1588814508
Bonavista,CA,48.65,-53.11,34.0,87,100,3.0,1588814508
São Filipe,CV,14.9,-24.5,73.98,75,65,9.35,1588814508
Areia Branca,BR,-4.96,-37.14,79.27,84,5,17.11,1588814508
Hambantota,LK,6.12,81.12,75.2,100,20,8.05,1588814509
Plettenberg Bay,ZA,-34.05,23.37,61.52,75,17,3.13,1588814509
Kununurra,AU,-15.77,128.73,82.4,30,27,4.7,1588814509
Nagato,JP,34.38,131.2,66.2,45,100,10.29,1588814509
Mława,PL,53.11,20.38,36.0,100,40,8.3,1588814510
Mokhsogollokh,RU,61.47,128.92,48.58,62,94,7.58,1588814510
Samarai,PG,-10.62,150.67,81.5,73,50,17.54,1588814510
Puerto Nariño,CO,-3.77,-70.38,78.8,100,100,2.24,1588814510
Boyabat,TR,41.47,34.77,51.57,81,79,0.65,1588814511
Kilindoni,TZ,-7.91,39.67,80.4,81,10,16.58,1588814511
Petropavlovsk-Kamchatskiy,RU,53.05,158.65,44.6,45,40,15.66,1588814313
Merauke,ID,-8.47,140.33,82.81,71,91,11.39,1588814511
Phitsanulok,TH,16.92,100.5,86.0,74,20,8.05,1588814511
Buala,SB,-8.14,159.59,84.58,70,61,2.55,1588814512
Charopo,GR,41.27,23.38,48.99,73,82,6.67,1588814512
Talnakh,RU,69.49,88.4,30.2,86,75,4.47,1588814512
Barcelos,PT,41.54,-8.62,59.0,100,100,2.24,1588814512
Toora-Khem,RU,52.47,96.11,42.3,60,2,3.09,1588814513
Vila Velha,BR,-20.33,-40.29,75.2,83,100,4.7,1588814513
Rantauprapat,ID,2.1,99.83,79.63,90,75,1.07,1588814513
Necochea,AR,-38.55,-58.74,51.01,81,100,1.01,1588814513
Najrān,SA,17.49,44.13,75.2,57,20,4.7,1588814513
Alvorada,BR,-12.48,-49.12,73.98,91,100,2.73,1588814259
Muroto-misakicho,JP,33.28,134.15,73.4,27,20,21.92,1588814514
Faanui,PF,-16.48,-151.75,82.33,77,100,16.06,1588814514
Hamilton,US,39.18,-84.53,54.0,34,20,9.17,1588814507
Boo,SE,59.33,18.28,41.0,72,27,3.36,1588814515
Havelock,US,34.88,-76.9,66.2,52,90,12.75,1588814515
Todos Santos,MX,23.45,-110.22,90.0,58,5,10.29,1588814515
Ngunguru,NZ,-35.62,174.5,64.99,81,96,3.0,1588814348
Tessalit,ML,20.2,1.01,86.74,12,0,9.26,1588814515
Gamboula,CF,4.12,15.14,70.11,97,100,1.3,1588814516
Bara,NG,10.37,10.73,85.6,39,1,0.98,1588814516
Águilas,ES,37.41,-1.58,64.0,76,100,8.66,1588814517
Saint-Augustin,CA,51.23,-58.65,34.9,95,100,8.37,1588814517
Aksu,CN,41.12,80.26,59.74,38,100,16.73,1588814517
Juegang,CN,32.32,121.19,66.49,75,0,18.79,1588814517
Bouca,CF,6.51,18.27,70.5,95,15,1.59,1588814517
Tazovsky,RU,67.47,78.7,25.02,98,76,7.4,1588814518
Mariehamn,AX,60.1,19.93,41.0,74,11,8.05,1588814518
Juradó,CO,7.11,-77.76,79.07,86,100,0.83,1588814518
Beloha,MG,-25.17,45.05,62.24,95,0,1.61,1588814518
La Santisima Trinidad,BO,-14.83,-64.9,65.66,76,100,5.48,1588814236
Ostrovnoy,RU,68.05,39.51,32.68,93,84,13.38,1588814519
Amahai,ID,-3.33,128.92,84.78,71,0,3.58,1588814519
Mubi,NG,10.27,13.26,84.29,17,7,1.74,1588814519
Storforshei,NO,66.4,14.52,35.01,90,89,1.99,1588814520
Vestmanna,FO,62.16,-7.17,44.6,75,100,11.41,1588814520
Acaraú,BR,-2.89,-40.12,78.55,87,0,9.95,1588814520
Shimoda,JP,34.67,138.95,62.6,55,40,23.04,1588814520
Sistranda,NO,63.73,8.83,39.2,86,75,19.46,1588814521
Acarí,PE,-15.43,-74.62,72.72,56,35,3.18,1588814521
Rawson,AR,-43.3,-65.1,58.19,36,90,8.52,1588814521
Fukuechō,JP,32.69,128.84,68.0,45,0,18.34,1588814521
Tambura,SS,5.6,27.47,71.65,91,98,2.82,1588814522
Hīt,IQ,33.64,42.83,68.31,44,0,9.84,1588814522
Lloydminster,CA,53.28,-110.0,66.2,25,75,20.8,1588814522
Siaya,KE,0.06,34.29,63.16,95,99,4.92,1588814522
Avera,US,33.19,-82.53,62.6,48,1,13.87,1588814523
Constitución,CL,-35.33,-72.42,58.46,43,50,6.02,1588814523
Narsaq,GL,60.92,-46.05,42.8,75,66,5.82,1588814523
Shache,CN,38.42,77.24,59.02,58,100,15.61,1588814524
Wajir,KE,1.75,40.06,75.92,84,100,15.23,1588814524
Saint-Joseph,RE,-21.37,55.62,73.4,78,20,6.93,1588814524
Colares,PT,38.8,-9.45,62.01,79,100,16.89,1588814525
Nadvoitsy,RU,63.87,34.32,36.18,91,0,5.82,1588814525
Kozachi Laheri,UA,46.7,32.98,48.99,100,3,1.99,1588814525
Massaguet,TD,12.48,15.44,91.4,14,0,8.05,1588814525
Lima,PE,-12.04,-77.03,68.0,82,100,8.05,1588814520
Walvis Bay,NA,-22.96,14.51,73.99,25,0,3.8,1588814526
Kabarnet,KE,0.49,35.74,59.0,87,100,2.24,1588814526
Vágur,FO,61.47,-6.81,44.17,82,100,17.07,1588814526
Rocha,UY,-34.48,-54.33,51.71,86,72,7.27,1588814527
Qasigiannguit,GL,68.82,-51.19,30.2,58,0,4.7,1588814527
Bada,RU,51.39,109.87,40.17,68,89,13.24,1588814527
Čáslav,CZ,49.91,15.39,46.4,70,3,9.17,1588814527
Chapleau,CA,47.84,-83.4,41.0,41,75,4.7,1588814528
Jutaí,BR,-5.18,-68.9,75.58,94,100,1.23,1588814528
College,US,64.86,-147.8,64.4,22,75,3.36,1588814352
Nevel',RU,56.02,29.93,47.48,84,100,7.23,1588814528
Vuktyl,RU,63.86,57.31,45.81,89,6,11.23,1588814529
Laguna,US,38.42,-121.42,84.99,8,1,13.87,1588814529
Magalia,US,39.81,-121.58,84.2,13,5,20.8,1588814529
Ellenabad,IN,29.45,74.65,79.09,39,0,13.13,1588814529
Buraidah,SA,26.33,43.98,71.6,37,86,9.17,1588814349
Sarkand,KZ,45.41,79.92,52.75,40,0,2.55,1588814530
Solnechnyy,RU,50.72,136.63,63.18,27,0,0.76,1588814530
Dromolaxia,CY,34.88,33.59,57.2,82,0,4.23,1588814530
Biak,ID,-0.91,122.88,85.26,70,0,2.01,1588814530
Sokolo,ML,14.73,-6.12,91.47,27,60,6.4,1588814531
Arlit,NE,18.74,7.39,79.66,15,0,7.4,1588814316
Sørland,NO,67.67,12.69,35.8,84,100,22.88,1588814531
Atambua,ID,-9.11,124.89,81.23,75,31,3.38,1588814532
Itupiranga,BR,-5.13,-49.33,78.8,100,73,2.08,1588814532
Nilanga,IN,18.1,76.77,83.79,43,13,11.07,1588814532
Dzilam González,MX,21.28,-88.93,82.0,80,95,8.39,1588814532
Staszów,PL,50.56,21.17,46.0,69,65,8.01,1588814533
Morondava,MG,-20.28,44.28,73.92,69,0,7.78,1588814533
Huai'an,CN,33.59,119.02,69.08,64,0,15.66,1588814533
Kaseda-shirakame,JP,31.42,130.32,75.2,44,40,9.17,1588814533
Bela,IN,25.93,81.98,82.29,38,0,5.23,1588814534
Murakami,JP,38.23,139.48,55.4,76,75,6.93,1588814534
São José da Coroa Grande,BR,-8.9,-35.15,78.96,84,100,6.93,1588814534
Kamenka,RU,51.32,42.77,54.0,94,100,1.99,1588814535
Hurghada,EG,27.26,33.81,73.4,31,0,10.29,1588814535
Nowy Dwór Mazowiecki,PL,52.43,20.72,39.99,86,54,8.05,1588814535
Tautira,PF,-17.73,-149.15,78.8,69,100,11.41,1588814535
Qaqortoq,GL,60.72,-46.03,42.8,75,99,5.82,1588814535
Lae,PG,-6.72,146.98,77.0,83,90,10.29,1588814536
San Julián,MX,21.02,-102.17,71.6,38,65,12.24,1588814536
Farafangana,MG,-22.82,47.83,70.07,92,15,5.01,1588814536
Laas,IT,46.62,10.7,41.0,75,5,5.82,1588814536
Lompoc,US,34.64,-120.46,72.0,48,1,16.11,1588814537
Wagar,SD,16.15,36.2,74.1,67,19,9.42,1588814537
Hailar,CN,49.2,119.7,57.47,51,100,11.68,1588814537
Rundu,NA,-17.93,19.77,55.27,42,0,4.9,1588814537
Klaksvík,FO,62.23,-6.59,44.6,75,100,11.41,1588814251
Goma,CD,-1.68,29.22,64.8,83,100,0.74,1588814538
Tilichiki,RU,60.47,166.1,32.54,100,100,10.04,1588814538
Narrabri,AU,-30.32,149.78,71.6,43,100,13.87,1588814538
Sitka,US,57.05,-135.33,50.0,66,90,10.29,1588814351
Bundaberg,AU,-24.85,152.35,77.0,53,40,18.34,1588814539
Bari,IT,41.12,16.85,60.01,82,100,9.17,1588814539
Porto Walter,BR,-8.27,-72.74,74.95,95,100,0.81,1588814539
Pocrí,PA,8.27,-80.55,82.11,75,100,6.93,1588814540
Cayenne,GF,4.93,-52.33,77.0,100,59,11.39,1588814469
Elizabeth City,US,36.29,-76.25,55.0,93,1,5.82,1588814540
Gravdal,NO,68.12,13.5,35.35,85,100,23.15,1588814540
Ribeira Grande,PT,38.52,-28.7,62.58,89,14,8.68,1588814541
Pacific Grove,US,36.62,-121.92,68.0,48,1,6.93,1588814312
Puerto del Rosario,ES,28.5,-13.86,66.2,72,40,5.82,1588814541
Inírida,CO,3.87,-67.92,74.61,98,100,4.09,1588814541
Kolondiéba,ML,11.09,-6.89,84.99,52,100,3.69,1588814541
Kačuni,BA,44.06,17.94,44.02,70,96,2.01,1588814542
Olinda,BR,-8.01,-34.86,82.4,78,40,3.36,1588814334
Key West,US,24.56,-81.78,78.8,74,1,10.29,1588814454
Jingdezhen,CN,29.29,117.21,77.56,79,2,3.83,1588814542
Grand Gaube,MU,-20.01,57.66,73.0,87,4,5.99,1588814543
Ponta do Sol,PT,32.67,-17.1,64.4,72,75,4.7,1588814543
Kathu,TH,7.92,98.33,84.2,83,20,3.36,1588814543
Ossora,RU,59.24,163.07,33.57,97,100,9.62,1588814543
Kalmunai,LK,7.42,81.82,80.74,86,100,5.08,1588814543
Kemijärvi,FI,66.71,27.43,27.23,97,0,6.04,1588814544
Linguère,SN,15.4,-15.12,77.61,33,74,13.62,1588814544
Bowen,AU,-20.02,148.23,80.6,61,10,19.46,1588814544
Mayya,RU,61.73,130.28,59.0,16,100,6.71,1588814544
Geraldton,AU,-28.77,114.6,60.8,63,90,13.87,1588814318
Hauterive,FR,46.09,3.45,50.0,93,44,1.12,1588814545
General Escobedo,MX,25.82,-100.33,78.8,61,75,18.34,1588814545
Havøysund,NO,71.0,24.66,37.4,86,95,20.8,1588814524
Kaeo,NZ,-35.1,173.78,64.99,59,99,7.0,1588814546
Iwanai,JP,42.97,140.51,54.7,59,5,6.2,1588814547
Tateyama,JP,34.98,139.87,66.0,55,40,23.04,1588814547
Sindor,RU,62.86,51.89,50.47,85,0,9.75,1588814548
Whitianga,NZ,-36.83,175.7,66.99,73,48,7.0,1588814548
Kirkuk,IQ,35.47,44.39,60.4,72,20,2.3,1588814548
Tahoua,NE,14.89,5.27,91.4,4,4,13.87,1588814548
Botucatu,BR,-22.89,-48.45,60.49,100,100,3.53,1588814548
Bergen,NO,60.39,5.33,42.01,100,90,5.82,1588814549
Khani,GE,41.96,42.96,55.4,93,90,12.75,1588814549
Samfya,ZM,-11.36,29.56,62.46,81,1,9.48,1588814549
Kutum,SD,14.2,24.67,72.68,22,86,9.84,1588814549
Tuatapere,NZ,-46.13,167.68,56.89,76,56,12.71,1588814550
Iralaya,HN,15.0,-83.23,84.2,70,75,4.7,1588814550
High Level,CA,58.52,-117.14,64.4,27,40,6.93,1588814491
Jiangmen,CN,22.58,113.08,84.99,83,71,5.99,1588814551
Nishihara,JP,26.18,127.76,80.6,65,75,11.41,1588814551
Hualmay,PE,-11.1,-77.61,69.26,74,100,6.69,1588814551
Tieli,CN,46.95,128.05,64.63,30,100,11.36,1588814551
Pontianak,ID,-0.03,109.33,80.6,83,20,3.36,1588814272
Trelew,AR,-43.25,-65.31,58.17,33,100,7.56,1588814552
Sinnamary,GF,5.38,-52.95,78.69,89,95,11.23,1588814552
Humaitá,BR,-7.51,-63.02,74.39,97,100,4.52,1588814552
Kysyl-Syr,RU,63.9,122.76,24.58,93,100,10.78,1588814553
Calvià,ES,39.57,2.51,64.0,55,0,5.82,1588814553
Berezovyy,RU,51.67,135.7,65.71,25,0,2.17,1588814553
Waingapu,ID,-9.66,120.26,84.78,74,100,13.49,1588814553
Colchester,GB,51.89,0.9,42.01,95,0,4.7,1588814554
Dakar,SN,14.69,-17.44,69.8,94,20,9.17,1588814554
Aklavik,CA,68.22,-135.01,24.8,79,90,8.05,1588814554
Chake Chake,TZ,-5.25,39.77,77.07,89,94,11.3,1588814554
São Félix do Xingu,BR,-6.64,-51.99,75.0,85,100,1.14,1588814554
Darhan,MN,49.49,105.92,46.02,52,0,7.99,1588814555
Kieta,PG,-6.22,155.63,85.28,65,84,3.31,1588814555
Balkanabat,TM,39.51,54.37,73.69,45,99,3.67,1588814555
Nerchinskiy Zavod,RU,51.31,119.61,48.81,48,100,12.57,1588814555
Katobu,ID,-4.94,122.53,77.18,93,100,9.44,1588814556
Dryden,CA,49.78,-92.75,44.6,28,1,9.17,1588814317
Nome,US,64.5,-165.41,37.0,92,90,4.7,1588814556
Les Escoumins,CA,48.11,-69.02,32.92,95,0,5.41,1588814556
Vanimo,PG,-2.67,141.3,87.91,62,45,0.67,1588814257
Karratha,AU,-20.74,116.85,81.43,36,0,14.74,1588814557
Parabel',RU,58.7,81.48,49.15,72,0,15.12,1588814557
Agde,FR,43.31,3.48,60.01,67,18,4.7,1588814557
Liverpool,GB,53.41,-2.98,52.0,76,0,4.7,1588814466
Kyakhta,RU,50.35,106.45,45.07,56,0,11.05,1588814558
Ziyang,CN,29.25,117.85,76.14,80,0,6.55,1588814558
Casablanca,MA,33.59,-7.62,66.0,93,100,3.36,1588814442
Mahenge,TZ,-8.68,36.72,63.16,94,70,2.04,1588814559
Bosconia,CO,9.97,-73.88,81.37,82,100,4.54,1588814559
Vung Tau,VN,10.35,107.08,85.6,74,22,9.89,1588814559
Mogadishu,SO,2.04,45.34,81.77,82,100,15.55,1588814378
Philadelphia,US,39.95,-75.16,46.4,81,90,6.93,1588814382
Lamu,KE,-2.27,40.9,79.14,84,20,11.95,1588814560
Port Shepstone,ZA,-30.74,30.45,62.49,74,16,7.38,1588814560
Korla,CN,41.76,86.15,55.85,46,0,8.55,1588814560
Yar-Sale,RU,66.83,70.83,18.01,95,100,2.51,1588814561
Galveston,US,29.37,-94.97,78.01,47,1,9.17,1588814561
Ovalle,CL,-30.6,-71.2,54.5,75,0,0.54,1588814561
Daoukro,CI,7.06,-3.96,73.8,96,100,1.74,1588814561
Kailua,US,21.4,-157.74,86.0,51,20,12.75,1588814562
Katsuura,JP,35.13,140.3,66.0,48,20,17.22,1588814562
Mnogovershinnyy,RU,53.94,139.92,49.01,49,0,3.71,1588814562
Puerto Ayacucho,VE,5.66,-67.62,76.98,91,100,8.77,1588814562
Methóni,GR,36.82,21.7,62.01,93,40,2.19,1588814563
Kimbe,PG,-5.55,150.14,85.71,73,28,3.4,1588814563
Jerantut,MY,3.94,102.36,81.93,80,88,0.29,1588814563
Boende,CD,-0.22,20.87,73.22,87,74,1.7,1588814564
Tianpeng,CN,30.99,103.94,73.0,1,100,1.99,1588814564
Huarmey,PE,-10.07,-78.15,70.39,73,100,6.98,1588814564
Eureka,US,40.8,-124.16,62.01,67,0,8.01,1588814339
Hofn,IS,64.25,-15.21,43.57,63,0,7.85,1588814565
Kumul,CN,42.8,93.45,54.63,36,96,15.14,1588814565
Hernani,ES,43.27,-1.98,62.6,88,40,5.82,1588814565
Lluta,PE,-16.01,-72.01,53.42,55,100,2.17,1588814565
Southampton,GB,50.9,-1.4,46.0,1,0,7.14,1588814459
Kidal,ML,18.44,1.41,84.2,13,0,5.68,1588814566
La Ronge,CA,55.1,-105.28,48.2,34,40,10.29,1588814566
Bathsheba,BB,13.22,-59.52,80.6,78,40,20.8,1588814566
Tiznit Province,MA,29.58,-9.5,63.45,79,100,2.55,1588814567
Ipatovo,RU,45.72,42.9,56.32,92,100,12.5,1588814567
Adeje,ES,28.12,-16.73,70.0,72,40,10.29,1588814567
Ottawa,CA,45.41,-75.7,51.8,23,40,6.93,1588814304
