City,Country,Lat,Lng,Max Temp,Humidity,Cloudiness,Wind Speed,Date
Busselton,AU,-33.65,115.33,55.99,89,96,21.36,1588746684
Ushuaia,AR,-54.8,-68.3,35.6,69,40,6.93,1588746541
Kapaa,US,22.08,-159.32,75.2,78,75,12.75,1588746685
Prince Albert,CA,53.2,-105.77,42.8,81,20,9.17,1588746451
Manitouwadge,CA,49.12,-85.84,33.39,94,100,10.65,1588746685
Bluff,NZ,-46.6,168.33,54.01,75,100,25.17,1588746686
Manaia,NZ,-39.55,174.13,43.0,86,0,4.14,1588746686
Hualmay,PE,-11.1,-77.61,66.24,86,100,6.6,1588746686
Iqaluit,CA,63.75,-68.51,6.8,84,5,1.81,1588746687
Barrow,US,71.29,-156.79,15.8,78,1,11.41,1588746574
Saskylakh,RU,71.92,114.08,9.07,93,80,11.68,1588746687
Arraial do Cabo,BR,-22.97,-42.03,72.88,84,69,10.36,1588746687
Katsuura,JP,35.13,140.3,66.99,88,75,9.17,1588746688
Qaanaaq,GL,77.48,-69.36,11.26,87,99,5.99,1588746688
Butaritari,KI,3.07,172.79,82.99,81,92,11.21,1588746688
Barcelos,PT,41.54,-8.62,57.2,100,40,6.93,1588746688
El Alto,PE,-4.27,-81.21,71.44,79,99,9.64,1588746689
Hithadhoo,MV,-0.6,73.08,85.21,70,0,7.76,1588746689
Rikitea,PF,-23.12,-134.97,73.72,68,100,14.99,1588746689
Riverton,US,40.52,-111.94,55.0,50,1,5.82,1588746689
Richards Bay,ZA,-28.78,32.04,71.56,59,0,11.68,1588746690
Hong Kong,HK,22.29,114.16,89.6,62,40,12.75,1588746513
Dinar,TR,38.06,30.17,55.4,66,40,5.82,1588746690
Baker,US,30.59,-91.17,73.4,78,75,3.36,1588746691
Elizabeth City,US,36.29,-76.25,55.4,87,90,10.29,1588746691
Albany,US,42.6,-73.97,39.99,56,60,2.42,1588746601
Nantong,CN,32.03,120.87,64.0,89,90,12.06,1588746612
Poronaysk,RU,49.22,143.12,43.65,71,0,15.93,1588746691
Ikom,NG,5.97,8.71,80.1,85,7,1.9,1588746692
Kununurra,AU,-15.77,128.73,91.4,11,0,5.82,1588746692
Trincomalee,LK,8.57,81.23,86.13,72,19,11.27,1588746692
Zhuhai,CN,22.28,113.57,89.6,89,40,11.41,1588746692
Leningradskiy,RU,69.38,178.42,20.43,94,0,7.65,1588746693
Belen,TR,36.49,36.22,71.6,46,40,11.41,1588746693
Takoradze,GH,4.88,-1.76,81.79,85,30,7.02,1588746693
Makakilo City,US,21.35,-158.09,75.2,64,1,5.82,1588746694
Portland,US,45.52,-122.68,57.99,54,75,4.7,1588746680
Cape Town,ZA,-33.93,18.42,66.99,93,0,10.29,1588746602
Uruaçu,BR,-14.52,-49.14,67.23,85,95,2.26,1588746694
Thompson,CA,55.74,-97.86,24.8,68,5,5.82,1588746695
Arrondissement de Niort,FR,46.33,-0.33,55.99,92,6,5.95,1588746695
Atuona,PF,-9.8,-139.03,81.03,76,1,19.06,1588746695
Havøysund,NO,71.0,24.66,37.4,86,75,10.29,1588746695
Hermanus,ZA,-34.42,19.23,57.99,89,5,9.8,1588746695
Simbahan,PH,6.3,120.58,84.97,68,0,3.49,1588746696
Puerto Escondido,MX,15.85,-97.07,80.8,70,100,5.73,1588746696
Berlevåg,NO,70.86,29.09,35.6,74,40,28.86,1588746696
Severo-Kuril'sk,RU,50.68,156.12,33.55,90,99,24.45,1588746696
Krasnozatonskiy,RU,61.68,50.98,59.0,77,20,6.71,1588746697
Mataura,NZ,-46.19,168.86,49.51,80,100,3.53,1588746697
Airai,TL,-8.93,125.41,68.22,100,100,3.62,1588746697
Torbay,CA,47.67,-52.73,36.0,100,90,14.99,1588746697
Lebu,CL,-37.62,-73.65,52.48,71,0,16.51,1588746698
Ust'-Omchug,RU,61.15,149.63,27.18,91,100,14.0,1588746698
Christchurch,NZ,-43.53,172.63,55.0,62,0,6.93,1588746602
Punta Arenas,CL,-53.15,-70.92,33.8,70,100,4.7,1588746698
Springdale,US,36.19,-94.13,55.4,54,1,6.93,1588746698
Nikolskoye,RU,59.7,30.79,57.2,41,45,11.18,1588746699
Nanortalik,GL,60.14,-45.24,40.05,76,100,10.31,1588746543
Isangel,VU,-19.55,169.27,71.6,94,90,3.36,1588746699
Hilo,US,19.73,-155.09,75.2,69,20,4.54,1588746607
Itum-Kale,RU,42.74,45.58,66.25,52,100,5.39,1588746699
Kungurtug,RU,50.6,97.52,44.82,51,100,9.42,1588746700
Yellowknife,CA,62.46,-114.35,33.8,59,20,12.75,1588746486
Humberto de Campos,BR,-2.6,-43.46,74.55,95,91,3.83,1588746700
Rocha,UY,-34.48,-54.33,54.16,73,92,14.81,1588746700
Yulara,AU,-25.24,130.99,84.2,7,99,9.17,1588746701
Avarua,CK,-21.21,-159.78,75.2,100,37,1.12,1588746701
Bredasdorp,ZA,-34.53,20.04,59.0,87,90,4.03,1588746701
Shimoda,JP,34.67,138.95,66.2,82,75,4.7,1588746701
Mahébourg,MU,-20.41,57.7,82.4,69,75,12.75,1588746702
Salamiyah,SY,35.01,37.05,65.89,55,24,29.42,1588746702
Tuktoyaktuk,CA,69.45,-133.04,28.4,92,90,3.36,1588746702
Lumeje,AO,-11.55,20.78,69.28,60,71,8.05,1588746702
Puerto Ayora,EC,-0.74,-90.35,75.99,94,56,4.45,1588746703
Sunnyside,US,46.32,-120.01,64.99,48,100,13.87,1588746703
Mutoko,ZW,-17.4,32.23,66.2,55,0,2.91,1588746703
Dikson,RU,73.51,80.55,10.72,92,3,12.39,1588746703
New Norfolk,AU,-42.78,147.06,60.01,69,100,5.01,1588746703
Broome,US,42.25,-75.83,34.0,43,1,6.93,1588746704
Cianjur,ID,-6.82,107.14,93.2,52,40,13.87,1588746704
George Town,MY,5.41,100.34,89.6,70,20,8.05,1588746477
Upernavik,GL,72.79,-56.15,18.43,90,0,8.14,1588746704
Kahului,US,20.89,-156.47,73.4,69,1,12.75,1588746705
Ribeira Grande,PT,38.52,-28.7,62.6,88,75,4.7,1588746705
Chui,UY,-33.7,-53.46,54.93,72,53,15.7,1588746705
Kiruna,SE,67.86,20.23,33.8,64,18,17.22,1588746705
Leshukonskoye,RU,64.9,45.76,44.53,85,100,4.72,1588746706
Lomovka,RU,53.92,58.37,71.6,36,2,6.71,1588746706
Port Elizabeth,ZA,-33.92,25.57,64.4,82,40,12.75,1588746605
Mar del Plata,AR,-38.0,-57.56,54.0,58,90,13.87,1588746557
Qaqortoq,GL,60.72,-46.03,39.2,80,100,4.7,1588746543
Atbasar,KZ,51.8,68.33,61.5,32,9,7.38,1588746707
Vaini,TO,-21.2,-175.2,77.0,94,75,6.93,1588746707
Nome,US,64.5,-165.41,39.0,69,1,6.93,1588746707
Pevek,RU,69.7,170.31,26.28,90,100,5.64,1588746707
Clyde River,CA,70.47,-68.59,3.2,91,1,4.7,1588746708
Karlshamn,SE,56.17,14.86,44.6,81,54,6.93,1588746708
Port Alfred,ZA,-33.59,26.89,64.0,84,69,5.01,1588746708
Guánica,PR,17.97,-66.91,81.0,78,43,1.01,1588746709
Saint Paul Harbor,US,57.79,-152.41,42.87,85,100,19.46,1588746709
Quatre Cocos,MU,-20.21,57.76,82.4,69,75,12.75,1588746709
Aklavik,CA,68.22,-135.01,24.8,92,90,11.41,1588746710
Bengkulu,ID,-3.8,102.27,87.26,65,38,13.13,1588746675
Priboj,BA,44.6,18.93,48.2,100,75,4.7,1588746710
Ponta do Sol,PT,32.67,-17.1,60.8,82,20,5.82,1588746710
Novozaimka,RU,56.49,66.92,71.08,31,0,14.88,1588746710
Castro,BR,-24.79,-50.01,57.72,81,28,4.43,1588746711
Ruidoso,US,33.33,-105.67,57.0,43,20,8.05,1588746711
Kaduqli,SD,11.02,29.72,94.68,32,0,6.67,1588746711
São Filipe,CV,14.9,-24.5,74.95,71,17,13.31,1588746712
Redlands,US,34.06,-117.18,73.99,40,1,1.1,1588746592
Fernie,CA,49.5,-115.07,50.0,46,20,4.21,1588746712
Bacsay,PH,15.65,120.33,100.4,45,75,6.93,1588746713
Wanaka,NZ,-44.7,169.15,46.99,68,40,5.84,1588746713
Alice Springs,AU,-23.7,133.88,86.0,8,0,6.93,1588746713
Naze,JP,28.37,129.48,78.8,78,40,12.75,1588746713
Hobart,AU,-42.88,147.33,60.8,48,96,6.93,1588746515
Bathsheba,BB,13.22,-59.52,80.6,74,40,20.8,1588746714
Kaitangata,NZ,-46.28,169.85,53.01,67,51,11.01,1588746714
Ahipara,NZ,-35.17,173.17,55.4,73,0,9.46,1588746714
Shenzhen,CN,22.55,114.07,89.6,74,40,17.9,1588746715
Bakel,SN,14.9,-12.46,79.9,22,0,12.62,1588746715
Buraidah,SA,26.33,43.98,78.8,39,86,13.87,1588746715
Ketchikan,US,55.34,-131.65,51.8,75,1,3.36,1588746715
Ilulissat,GL,69.22,-51.1,23.0,62,0,4.45,1588746470
Mayya,RU,61.73,130.28,55.4,11,100,11.18,1588746716
Mayo,US,38.89,-76.51,51.01,93,90,9.17,1588746716
Ostashkov,RU,57.15,33.11,54.12,93,100,3.74,1588746716
Ancud,CL,-41.87,-73.82,46.99,100,90,2.24,1588746717
Kragujevac,RS,44.02,20.92,50.0,100,90,4.7,1588746717
Dudinka,RU,69.41,86.18,26.6,86,75,13.42,1588746717
Colac,AU,-38.33,143.58,61.0,66,100,1.99,1588746717
China,MX,25.7,-99.23,80.83,66,64,9.82,1588746595
Henties Bay,NA,-22.12,14.28,84.0,20,0,5.99,1588746718
Ngunguru,NZ,-35.62,174.5,54.0,64,0,5.01,1588746546
Khatanga,RU,71.97,102.5,12.67,90,60,16.22,1588746719
Fort Nelson,CA,58.81,-122.7,39.2,93,75,4.7,1588746719
Le Port,RE,-20.94,55.29,84.2,58,9,16.11,1588746720
Udangudi,IN,8.43,78.02,92.14,52,100,10.31,1588746720
Tuatapere,NZ,-46.13,167.68,49.62,81,100,5.61,1588746720
Miami,US,25.77,-80.19,75.99,83,20,3.36,1588746507
Chipinge,ZW,-20.19,32.62,67.3,55,0,4.18,1588746720
Tasiilaq,GL,65.61,-37.64,33.8,69,100,2.24,1588746721
Anzio,IT,41.49,12.62,66.99,67,0,3.0,1588746721
Povenets,RU,62.85,34.83,48.99,66,63,1.99,1588746721
Ust'-Kishert',RU,57.37,57.25,68.5,42,0,13.0,1588746721
Muros,ES,42.78,-9.06,59.0,90,74,5.01,1588746722
Chumikan,RU,54.72,135.31,47.95,56,0,8.1,1588746722
Strausberg,DE,52.58,13.89,50.0,47,3,4.0,1588746722
Mae Sai,TH,20.43,99.88,99.0,50,20,5.82,1588746722
Chililabombwe,ZM,-12.36,27.82,64.94,65,0,8.66,1588746723
Sinnamary,GF,5.38,-52.95,78.15,85,100,11.77,1588746723
Jamestown,US,42.1,-79.24,39.2,48,90,5.82,1588746723
Antigonish,CA,45.62,-62.0,35.01,92,100,11.99,1588746723
Pacific Grove,US,36.62,-121.92,57.2,82,1,12.75,1588746724
La Primavera,CO,5.49,-70.41,78.96,84,83,1.9,1588746724
Usinsk,RU,65.99,57.53,35.01,87,99,4.7,1588746724
Nioro,GM,13.35,-15.75,69.1,74,0,5.86,1588746724
Shingū,JP,33.73,135.98,69.8,94,75,6.93,1588746725
Rosarito,MX,32.33,-117.03,68.0,77,20,3.36,1588746725
Bokoro,TD,12.38,17.06,89.83,12,0,11.65,1588746725
Arrecife,ES,28.96,-13.55,62.6,77,20,8.05,1588746725
Waddān,LY,29.16,16.14,75.47,23,0,6.38,1588746726
Bethel,US,41.37,-73.41,41.0,74,1,4.81,1588746726
Namatanai,PG,-3.67,152.43,82.85,71,92,3.33,1588746726
Saint-François,FR,46.42,3.91,53.6,87,90,2.24,1588746726
Aswān,EG,24.09,32.91,73.4,25,56,11.41,1588746727
Quito,EC,-0.23,-78.52,53.6,87,40,4.7,1588746727
Mēga,ET,4.05,38.3,63.34,97,98,12.68,1588746727
Necochea,AR,-38.55,-58.74,54.0,75,100,15.01,1588746727
Aquidauana,BR,-20.47,-55.79,74.08,61,100,6.4,1588746727
Nouadhibou,MR,20.93,-17.03,64.4,82,0,12.75,1588746728
Mount Gambier,AU,-37.83,140.77,64.4,45,100,16.11,1588746728
Constitución,CL,-35.33,-72.42,53.82,61,0,6.82,1588746728
Mbamba,NG,9.98,13.1,88.52,23,0,1.12,1588746728
Cabo San Lucas,MX,22.89,-109.91,71.01,65,0,8.63,1588746729
Omboué,GA,-1.57,9.26,79.74,89,94,2.64,1588746729
Shakawe,BW,-18.37,21.85,68.49,40,0,9.48,1588746729
Locri,IT,38.24,16.26,69.01,55,100,2.24,1588746729
East London,ZA,-33.02,27.91,64.4,63,1,8.05,1588746601
Fortuna,US,40.6,-124.16,50.0,93,1,2.91,1588746730
Port Macquarie,AU,-31.43,152.92,69.01,66,35,5.73,1588746474
Bosobolo,CD,4.18,19.9,74.97,88,100,2.39,1588746730
Saldanha,ZA,-33.01,17.94,53.6,71,0,5.82,1588746730
Ewo,CG,-0.87,14.82,77.83,82,100,6.35,1588746730
Nang Rong,TH,14.64,102.79,97.0,45,100,5.19,1588746731
Margate,GB,51.38,1.39,54.0,75,0,3.0,1588746731
Carnarvon,AU,-24.87,113.63,71.92,56,0,19.06,1588746653
Vao,NC,-22.67,167.48,72.03,71,100,25.5,1588746731
Vila Franca do Campo,PT,37.72,-25.43,62.6,88,75,9.17,1588746732
Magadan,RU,59.57,150.8,37.74,73,100,19.53,1588746705
Chico,US,39.73,-121.84,73.4,35,1,13.87,1588746615
Rosetta,EG,31.4,30.42,66.2,63,40,11.41,1588746733
Saint-Louis,SN,16.33,-15.0,80.6,42,0,4.7,1588746733
Kushiro,JP,42.98,144.37,46.4,76,75,11.41,1588746733
Altamira,BR,-3.2,-52.21,73.65,98,100,3.33,1588746733
Cherskiy,RU,68.75,161.3,31.39,94,100,2.84,1588746733
Bahraich,IN,27.58,81.6,93.63,26,0,3.89,1588746734
Bambous Virieux,MU,-20.34,57.76,82.4,69,75,12.75,1588746734
Kavieng,PG,-2.57,150.8,83.88,74,3,3.98,1588746734
Lompoc,US,34.64,-120.46,57.99,87,1,6.93,1588746734
Longyearbyen,SJ,78.22,15.64,32.0,94,75,16.11,1588746735
Dwārka,IN,22.24,68.97,89.04,57,0,13.38,1588746735
Winnemucca,US,40.97,-117.74,66.2,10,1,12.75,1588746735
Olafsvik,IS,64.89,-23.71,42.31,88,98,7.43,1588746735
Provideniya,RU,64.38,-173.3,32.0,87,0,4.47,1588746735
Mastung,PK,29.8,66.84,79.21,16,0,15.43,1588746736
Prince Rupert,CA,54.32,-130.32,48.2,63,75,10.29,1588746659
Beyneu,KZ,45.32,55.2,75.4,30,100,24.94,1588746736
Prince George,CA,53.92,-122.75,48.99,57,1,10.29,1588746615
Hasaki,JP,35.73,140.83,60.8,100,75,8.05,1588746736
Samarai,PG,-10.62,150.67,80.1,80,100,17.67,1588746737
Vanimo,PG,-2.67,141.3,84.92,76,2,9.06,1588746737
Ambulu,ID,-8.35,113.61,84.33,76,22,7.83,1588746737
Bílina,CZ,50.55,13.78,44.01,74,12,5.99,1588746737
Palu,ID,-0.89,119.87,88.57,62,67,1.9,1588746738
Saint-Pierre,RE,-21.34,55.48,81.0,69,20,3.36,1588746738
Sítio Novo do Tocantins,BR,-5.52,-47.46,72.21,96,73,2.24,1588746738
Outram,MY,1.28,103.84,87.8,79,40,9.17,1588746738
Husavik,IS,66.04,-17.34,41.0,56,67,5.82,1588746739
Hambantota,LK,6.12,81.12,85.28,76,76,19.8,1588746739
Chokurdakh,RU,70.63,147.92,23.47,97,100,6.04,1588746739
Orlovka,RU,44.69,44.17,62.55,82,100,10.71,1588746740
Soe,ID,-9.86,124.28,77.23,78,73,8.52,1588746740
Kieta,PG,-6.22,155.63,81.75,70,99,1.61,1588746740
Mbaïki,CF,3.87,17.99,77.25,72,100,2.26,1588746740
Izhma,RU,65.01,53.91,43.36,77,100,4.09,1588746741
Coquimbo,CL,-29.95,-71.34,51.8,93,4,3.36,1588746741
Biskamzha,RU,53.45,89.53,45.77,57,17,11.16,1588746741
Cidreira,BR,-30.18,-50.21,57.69,78,2,15.43,1588746741
Arrondissement de Mende,FR,44.67,3.5,50.16,85,63,4.65,1588746742
Avera,US,33.19,-82.53,73.4,83,40,4.7,1588746742
Gaya,IN,24.78,85.0,86.0,58,0,4.7,1588746742
Balkhash,KZ,46.84,74.98,55.4,22,0,17.9,1588746743
Port Lincoln,AU,-34.73,135.87,71.56,30,100,18.54,1588746743
Norman Wells,CA,65.28,-126.83,44.6,56,20,4.7,1588746743
Pilar,BR,-9.6,-35.96,73.4,100,40,3.36,1588746743
Buta,CD,2.79,24.73,81.59,74,32,1.14,1588746743
Damara,CF,4.96,18.7,71.6,100,75,2.24,1588746744
Lokoja,NG,7.8,6.74,82.36,74,0,4.9,1588746744
Honiara,SB,-9.43,159.95,87.8,66,20,5.82,1588746546
Keti Bandar,PK,24.14,67.45,91.76,52,0,13.2,1588746744
Athabasca,CA,54.72,-113.29,46.54,62,0,4.14,1588746745
Machico,PT,32.7,-16.77,60.8,82,20,5.82,1588746745
Sistranda,NO,63.73,8.83,42.8,81,75,17.22,1588746745
Mackenzie,CA,55.3,-123.17,39.2,62,20,2.24,1588746543
Dunedin,NZ,-45.87,170.5,53.01,69,62,4.9,1588746671
Bandarbeyla,SO,9.49,50.81,86.0,62,20,6.06,1588746746
Beringovskiy,RU,63.05,179.32,27.14,95,19,6.35,1588746746
Victor Harbor,AU,-35.57,138.62,69.01,35,81,3.0,1588746746
Hofn,IS,64.25,-15.21,45.59,65,100,13.87,1588746746
Fernley,US,39.61,-119.25,63.0,17,100,1.01,1588746747
Kismayo,SO,-0.36,42.55,83.32,76,100,12.57,1588746747
San Jerónimo,PE,-11.95,-75.28,45.66,76,98,1.21,1588746747
Campina Verde,BR,-19.54,-49.49,64.78,85,0,2.19,1588746748
Forsytheganj,BY,52.63,29.73,55.18,69,99,6.08,1588746748
Surazh,RU,53.02,32.39,50.23,97,100,5.39,1588746748
Faanui,PF,-16.48,-151.75,82.45,76,0,12.93,1588746748
Guerrero Negro,MX,27.98,-114.06,66.58,73,0,8.08,1588746749
Tagusao,PH,9.19,117.81,88.38,65,30,2.48,1588746749
Semnan,IR,35.57,53.4,84.38,14,25,15.23,1588746749
Assiniboia,CA,49.63,-105.98,47.44,59,0,2.51,1588746749
Gijang,KR,35.24,129.21,75.2,47,0,17.22,1588746749
Maniitsoq,GL,65.42,-52.9,31.05,88,42,2.82,1588746750
Tura,IN,25.52,90.22,91.63,41,59,4.23,1588746750
Beisfjord,NO,68.38,17.6,37.4,74,75,40.26,1588746750
Vestmannaeyjar,IS,63.44,-20.27,43.81,82,100,8.7,1588746750
Marzuq,YE,14.4,46.47,83.52,24,100,6.67,1588746751
Carballo,ES,43.21,-8.69,62.01,3,22,1.01,1588746695
Okhotsk,RU,59.38,143.3,41.61,65,24,16.13,1588746724
Baharly,TM,38.44,57.43,85.96,27,6,16.55,1588746752
Malanje,AO,-9.54,16.34,68.76,85,78,5.82,1588746752
Bourail,NC,-21.57,165.48,68.07,84,100,10.29,1588746752
Klaksvík,FO,62.23,-6.59,44.6,87,100,13.87,1588746752
Anadyr,RU,64.75,177.48,32.0,95,20,15.66,1588746753
Esperance,AU,-33.87,121.9,60.8,38,75,34.45,1588746753
Mandya,IN,12.52,76.9,89.6,46,20,4.88,1588746567
Port Hedland,AU,-20.32,118.57,91.4,27,0,13.87,1588746753
Iquitos,PE,-3.75,-73.25,77.0,94,100,1.3,1588746754
Kavaratti,IN,10.57,72.64,91.4,63,20,6.93,1588746754
Nizhnevartovsk,RU,60.93,76.55,50.0,87,100,2.24,1588746754
Paciran,ID,-6.88,112.38,86.97,70,12,9.15,1588746754
Bragança,BR,-1.05,-46.77,74.62,99,100,2.1,1588746755
Otacílio Costa,BR,-27.48,-50.12,56.62,99,100,3.15,1588746755
Buxton,GB,53.26,-1.91,43.0,81,1,7.23,1588746755
Harbour Breton,CA,47.48,-55.8,33.98,96,100,15.01,1588746755
Krasnosel'kup,RU,65.7,82.47,33.84,99,100,8.37,1588746756
Carberry,CA,49.87,-99.36,37.4,74,75,3.36,1588746756
Ixtapa,MX,20.7,-105.2,73.31,42,1,3.89,1588746756
Sciacca,IT,37.51,13.09,69.01,48,1,5.01,1588746756
Chara,RU,56.91,118.26,61.27,31,91,16.02,1588746757
Bequimão,BR,-2.45,-44.78,78.8,100,75,3.36,1588746757
Snåase,NO,64.25,12.38,39.2,80,75,9.17,1588746757
Tiksi,RU,71.69,128.87,26.11,98,100,11.21,1588746757
Kandrian,PG,-6.22,149.55,80.96,85,100,3.85,1588746758
Polunochnoye,RU,60.87,60.42,66.47,58,99,7.14,1588746758
Gombong,ID,-7.61,109.51,84.22,79,100,8.28,1588746602
City of San Pedro,PH,14.35,121.02,99.0,53,40,10.29,1588746759
San Policarpo,PH,12.18,125.51,85.53,74,100,9.42,1588746759
Eyl,SO,7.98,49.82,87.06,61,0,7.63,1588746759
Mehamn,NO,71.04,27.85,37.4,86,75,10.29,1588746759
Ostrovnoy,RU,68.05,39.51,37.17,87,0,18.54,1588746760
Jiuquan,CN,39.74,98.52,63.05,42,38,4.21,1588746760
Maceió,BR,-9.67,-35.74,73.4,100,40,3.36,1588746760
Loreto,MX,22.27,-101.97,61.0,70,98,5.21,1588746760
Acapulco de Juárez,MX,16.86,-99.89,75.2,94,40,4.34,1588746759
Mezen',RU,65.85,44.24,43.92,75,28,5.12,1588746761
Katobu,ID,-4.94,122.53,83.66,84,100,2.93,1588746761
Jiaozuo,CN,35.24,113.23,83.84,30,42,14.43,1588746761
Helong,CN,42.54,129.0,62.69,30,0,9.62,1588746761
Torres,BR,-29.34,-49.73,60.82,85,100,17.52,1588746761
Esmeraldas,BR,-19.76,-44.31,64.4,93,54,2.24,1588746762
Kitakata,JP,37.65,139.87,57.2,100,75,3.36,1588746762
Sørland,NO,67.67,12.69,37.4,96,75,31.14,1588746762
St. George's,GD,12.06,-61.75,82.4,78,40,17.22,1588746763
Cabañas,CU,22.98,-82.92,73.4,88,5,2.24,1588746763
Cherepanovo,RU,54.22,83.38,45.88,71,100,13.33,1588746763
Tezu,IN,27.92,96.17,94.03,34,13,3.98,1588746763
Taylor,US,32.3,-99.83,60.8,54,1,5.28,1588746763
Kailua,US,21.4,-157.74,80.6,57,20,10.29,1588746764
Bilibino,RU,68.05,166.44,26.89,92,100,2.26,1588746764
Salalah,OM,17.02,54.09,87.8,66,20,9.17,1588746764
Taoudenni,ML,22.68,-3.98,91.44,11,0,2.15,1588746764
Kudat,MY,6.88,116.85,91.4,66,75,10.29,1588746765
Bud,US,39.45,-86.18,41.0,88,98,10.11,1588746765
Bozüyük,TR,39.91,30.04,50.0,81,0,4.7,1588746765
Bay Roberts,CA,47.6,-53.26,35.01,1,100,1.99,1588746765
Okha,RU,53.57,142.95,36.95,81,98,13.94,1588746766
Kuytun,RU,54.34,101.5,46.96,54,100,20.13,1588746766
Saint-Philippe,RE,-21.36,55.77,81.0,69,20,3.36,1588746766
Antofagasta,CL,-23.65,-70.4,59.0,87,75,3.36,1588746766
Shache,CN,38.42,77.24,66.27,41,100,8.77,1588746766
Mossamedes,AO,-15.2,12.15,79.27,65,0,0.47,1588746767
Altay,CN,47.87,88.12,50.9,44,77,8.55,1588746767
Sabla,NG,12.75,4.71,92.88,18,18,12.3,1588746767
Zapolyarnyy,RU,69.42,30.81,37.4,69,75,24.16,1588746767
Vila Velha,BR,-20.33,-40.29,71.6,83,0,3.36,1588746705
Saint George,US,37.1,-113.58,71.6,17,1,1.68,1588746724
Coyhaique,CL,-45.58,-72.07,39.2,93,100,6.93,1588746768
Belaya Gora,RU,68.53,146.42,28.87,94,100,2.64,1588746768
Mount Vernon,US,40.91,-73.84,53.01,62,75,9.17,1588746768
Camacha,PT,33.08,-16.33,60.8,87,20,2.24,1588746769
Morehead,US,37.27,-87.18,51.8,100,75,3.36,1588746769
Rāpar,IN,23.57,70.63,104.59,15,0,11.72,1588746769
Nago,JP,26.59,127.98,80.01,83,90,13.87,1588746769
Faya,SA,18.39,42.45,75.2,43,20,4.63,1588746770
Tigil',RU,57.8,158.67,35.02,94,100,13.22,1588746770
Champerico,GT,14.3,-91.92,83.61,71,95,9.89,1588746770
Porto-Novo,BJ,6.5,2.6,82.4,88,20,11.41,1588746770
Fethiye,TR,36.62,29.12,69.8,56,0,11.41,1588746771
Makushino,RU,55.21,67.24,69.84,28,0,13.35,1588746771
Walla Walla,US,46.06,-118.34,60.8,59,1,3.36,1588746561
Savinskiy,RU,62.93,40.14,43.54,93,100,6.06,1588746771
Olinda,BR,-8.01,-34.86,80.6,74,75,10.29,1588746772
Waverley,ZA,-25.7,28.26,61.0,87,0,1.12,1588746772
Grand Gaube,MU,-20.01,57.66,82.0,71,2,10.0,1588746772
Sechura,PE,-5.56,-80.82,72.84,73,100,6.53,1588746773
Flinders,AU,-34.58,150.86,68.0,63,45,7.0,1588746773
Itarema,BR,-2.92,-39.92,76.17,89,13,10.33,1588746773
Fare,PF,-16.7,-151.02,83.19,74,8,11.27,1588746774
Fairfield,US,41.27,-73.32,45.0,70,96,1.01,1588746774
Lüderitz,NA,-26.65,15.16,77.04,23,0,9.24,1588746774
Farmington,US,36.73,-108.22,55.4,11,1,5.21,1588746774
Alta Floresta,BR,-9.88,-56.09,72.52,97,100,1.5,1588746774
Diffa,NE,13.32,12.61,87.93,13,83,14.52,1588746775
Burgeo,CA,47.62,-57.62,36.16,94,100,9.35,1588746735
Surdulica,RS,42.69,22.17,55.0,10,100,7.87,1588746775
Mosquera,CO,4.71,-74.23,51.8,87,75,4.7,1588746775
Yaroslavl,RU,57.63,39.87,64.4,63,82,8.95,1588746549
Birao,CF,10.28,22.79,85.62,52,100,11.25,1588746776
Collie,AU,-33.37,116.15,55.99,89,90,14.38,1588746776
Wajir,KE,1.75,40.06,84.6,63,77,16.22,1588746776
Srednekolymsk,RU,67.45,153.68,32.04,94,99,6.67,1588746777
High Prairie,CA,55.43,-116.49,40.37,89,0,1.7,1588746777
Dakar,SN,14.69,-17.44,68.0,100,0,2.24,1588746777
Bystryy Istok,RU,52.37,84.39,52.88,47,100,7.18,1588746777
Payo,ID,-3.75,103.64,87.04,78,100,3.31,1588746778
Aykhal,RU,66.0,111.5,17.6,72,75,11.18,1588746700
Afrikanda,RU,67.44,32.78,38.23,78,96,9.82,1588746778
Bukachacha,RU,52.98,116.92,64.51,27,100,11.1,1588746778
Silver City,US,32.77,-108.28,57.2,41,1,6.93,1588746779
Hobyo,SO,5.35,48.53,86.74,64,73,6.33,1588746779
São Francisco do Sul,BR,-26.24,-48.64,64.99,84,55,4.0,1588746779
Meulaboh,ID,4.14,96.13,83.91,71,96,4.07,1588746779
Talnakh,RU,69.49,88.4,26.6,86,75,13.42,1588746780
Tarko-Sale,RU,64.92,77.78,37.69,90,99,13.51,1588746780
Te Anau,NZ,-45.42,167.72,49.41,78,100,5.77,1588746780
Lagoa,PT,39.05,-27.98,61.84,85,11,12.12,1588746781
Nelson Bay,AU,-32.72,152.15,69.8,56,0,5.82,1588746781
Rāmānuj Ganj,IN,23.8,83.7,102.6,12,2,12.33,1588746781
Andenes,NO,69.31,16.12,33.8,96,90,19.46,1588746711
Esna,EG,25.29,32.55,71.6,46,0,3.36,1588746781
Sirte,LY,31.21,16.59,73.94,38,0,8.16,1588746782
Krabi,TH,8.07,98.91,93.2,63,75,4.7,1588746782
Nioki,CD,-2.72,17.68,78.26,88,100,1.61,1588746782
Danville,US,36.59,-79.39,53.6,87,90,5.82,1588746782
Nemuro,JP,43.32,145.57,51.8,75,75,12.75,1588746783
Lamar,US,33.67,-95.58,55.4,87,1,4.7,1588746783
Sola,VU,-13.88,167.55,84.2,89,40,3.56,1588746783
Raudeberg,NO,61.99,5.14,45.0,93,100,7.18,1588746783
Manono,CD,-7.3,27.42,77.45,72,0,8.9,1588746784
‘Ewa Beach,US,21.32,-158.01,75.2,64,1,5.82,1588746784
Entre Rios,BR,-11.94,-38.08,71.19,98,35,3.0,1588746784
Gladstone,AU,-23.85,151.25,77.0,50,2,14.99,1588746562
Fairbanks,US,64.84,-147.72,55.4,32,20,5.82,1588746602
Huarmey,PE,-10.07,-78.15,68.23,82,100,5.08,1588746785
Meadow Lake,US,34.8,-106.54,66.2,25,1,4.7,1588746785
Salinas,US,36.68,-121.66,60.8,72,1,9.17,1588746758
Campos Novos,BR,-27.4,-51.23,56.19,100,100,4.25,1588746648
Xichang,CN,27.9,102.26,86.05,31,12,13.38,1588746786
Karratha,AU,-20.74,116.85,87.69,30,28,11.59,1588746533
Lagos,NG,6.58,3.75,80.6,94,40,2.24,1588746526
Petropavlovsk-Kamchatskiy,RU,53.05,158.65,44.6,52,40,13.42,1588746786
Zhigansk,RU,66.77,123.37,31.33,98,100,17.05,1588746787
Jieshi,CN,22.81,115.83,82.24,78,3,17.4,1588746787
São Félix do Xingu,BR,-6.64,-51.99,71.73,96,100,1.57,1588746787
Terney,RU,45.05,136.61,48.92,64,66,4.81,1588746787
Mogok,MM,22.92,96.5,84.99,47,99,2.62,1588746787
Caravelas,BR,-17.71,-39.25,69.96,85,0,4.76,1588746788
Padang,ID,-0.95,100.35,86.67,63,99,5.5,1588746788
Monrovia,LR,6.3,-10.8,80.6,94,75,5.01,1588746788
Siavonga,ZM,-16.54,28.71,72.99,50,0,4.7,1588746788
Námestovo,SK,49.41,19.48,42.8,87,75,5.82,1588746789
Chifeng,CN,42.27,118.96,78.35,19,4,19.64,1588746789
Pag,HR,44.45,15.06,59.0,58,75,16.11,1588746789
Kimbe,PG,-5.55,150.14,81.61,82,100,1.03,1588746789
Alekseyevsk,RU,57.84,108.35,52.18,43,100,12.24,1588746789
Ajdabiya,LY,30.76,20.23,67.84,30,0,5.28,1588746790
Tiarei,PF,-17.53,-149.33,77.0,88,75,4.7,1588746790
Cockburn Town,TC,21.46,-71.14,79.77,80,100,16.73,1588746790
Kapit,MY,2.02,112.93,98.17,44,50,0.69,1588746790
Kysyl-Syr,RU,63.9,122.76,51.19,69,100,7.11,1588746791
Vardø,NO,70.37,31.11,39.2,69,75,13.87,1588746791
Araouane,ML,18.9,-3.53,89.33,12,95,4.52,1588746791
Hay River,CA,60.82,-115.8,41.0,56,40,10.29,1588746791
Tokmak,UA,47.25,35.71,64.08,69,10,11.86,1588746792
Yar-Sale,RU,66.83,70.83,33.71,98,79,8.16,1588746792
Niquero,CU,20.04,-77.58,78.17,78,3,4.76,1588746792
Algiers,DZ,36.75,3.04,64.4,93,0,2.24,1588746761
Harper,LR,4.38,-7.72,80.31,82,91,2.08,1588746793
Adrar,MR,20.5,-10.07,81.84,16,0,11.97,1588746793
Mitú,CO,1.2,-70.17,72.93,97,60,1.03,1588746589
Lanigay,PH,13.32,123.5,90.97,57,72,0.4,1588746793
Martapura,ID,-3.42,114.85,91.4,59,40,2.24,1588746793
Yerbogachën,RU,61.28,108.01,39.33,86,100,13.56,1588746794
Gōtsuchō,JP,35.0,132.22,64.4,77,20,9.17,1588746794
Pueblo Bello,CO,8.2,-76.53,75.52,96,88,2.77,1588746794
Owando,CG,-0.48,15.9,76.62,92,100,2.39,1588746794
Birecik,TR,37.03,37.99,64.4,48,75,11.41,1588746795
Merauke,ID,-8.47,140.33,82.45,73,29,20.65,1588746795
Lata,PT,40.16,-8.33,57.99,92,63,2.17,1588746795
Porbandar,IN,21.64,69.61,91.4,66,0,9.17,1588746796
Solok,ID,-0.79,100.66,86.79,57,100,0.96,1588746796
Novobirilyussy,RU,56.95,90.67,51.6,50,12,11.34,1588746796
Dixon,US,38.45,-121.82,60.8,67,1,6.93,1588746796
Santa Lucía,ES,27.91,-15.54,66.2,68,20,12.75,1588746797
Yarmouth,US,41.71,-70.23,42.8,75,1,7.02,1588746732
Eenhana,NA,-17.47,16.33,62.6,59,8,4.7,1588746797
Kiunga,PG,-6.12,141.29,83.62,76,20,2.59,1588746798
Mehrān,IR,33.12,46.16,66.2,55,90,13.87,1588746798
Três Lagoas,BR,-20.75,-51.68,68.29,81,100,2.86,1588746798
Sabang,ID,5.89,95.32,85.21,71,97,10.22,1588746798
Codrington,AU,-38.27,141.97,60.37,55,100,11.63,1588746799
Yaring,TH,6.87,101.37,89.6,70,20,9.17,1588746799
São Gabriel da Cachoeira,BR,-0.13,-67.09,73.81,98,100,1.45,1588746799
Tautira,PF,-17.73,-149.15,77.0,88,75,4.7,1588746800
San Cristobal,VE,7.77,-72.22,67.12,90,26,2.64,1588746800
Rostovka,RU,55.38,71.89,66.85,33,0,14.56,1588746800
Praia da Vitória,PT,38.73,-27.07,60.8,87,75,12.06,1588746800
Kovdor,RU,67.57,30.48,38.97,75,100,14.47,1588746801
Pangnirtung,CA,66.15,-65.71,8.82,83,0,3.15,1588746801
Hopkinsville,US,36.87,-87.49,50.0,92,3,7.11,1588746720
Saravena,CO,6.95,-71.88,71.98,89,41,3.06,1588746801
Dongying,CN,37.46,118.49,80.56,25,13,10.25,1588746801
Landskrona,SE,55.87,12.83,50.0,70,98,1.99,1588746802
Umm Bāb,QA,25.21,50.81,93.99,33,1,6.93,1588746802
LaBelle,US,26.76,-81.44,72.0,88,75,4.7,1588746802
Isil'kul',RU,54.91,71.27,66.94,29,0,12.5,1588746803
Westport,US,41.14,-73.36,46.99,65,1,4.7,1588746779
Gondanglegi,ID,-7.75,112.01,86.4,73,35,7.67,1588746803
Udachny,RU,66.42,112.4,17.6,72,75,11.18,1588746804
Upington,ZA,-28.45,21.26,51.8,23,8,1.12,1588746804
Salamá,HN,14.83,-86.58,72.03,81,85,1.05,1588746804
Hervey Bay,AU,-25.3,152.85,73.99,60,0,8.99,1588746804
Brae,GB,60.4,-1.35,48.2,81,100,12.75,1588746805
Hamamatsu,JP,34.7,137.73,70.0,82,100,1.01,1588746805
Salinópolis,BR,-0.61,-47.36,79.59,87,99,8.9,1588746805
Braintree,GB,51.88,0.55,48.99,95,0,9.4,1588746805
Rizhao,CN,35.43,119.46,63.16,71,0,10.31,1588746805
Lorengau,PG,-2.02,147.27,80.64,85,100,6.89,1588746806
Buala,SB,-8.14,159.59,83.23,70,86,1.12,1588746806
Ţaga,RO,46.95,24.05,45.0,75,40,18.34,1588746806
Boa Viagem,BR,-5.13,-39.73,71.33,95,17,3.58,1588746582
Tulum,MX,20.22,-87.47,81.0,90,100,1.99,1588746766
Dongning,CN,44.06,131.12,62.91,30,32,13.6,1588746807
Rio Grande,BR,-32.03,-52.1,53.01,82,27,1.99,1588746807
Sitka,US,57.05,-135.33,50.0,53,40,4.7,1588746596
Tabou,CI,4.42,-7.35,79.83,84,21,2.06,1588746808
Price,US,39.6,-110.81,55.4,17,1,4.7,1588746808
Mount Isa,AU,-20.73,139.5,84.2,23,1,10.29,1588746808
Altamont,US,42.21,-121.74,51.8,62,90,13.87,1588746808
La Masica,HN,15.62,-87.12,77.77,77,100,4.45,1588746809
La Plata,AR,-34.92,-57.95,48.0,100,0,6.93,1588746641
Am Timan,TD,11.03,20.28,87.89,48,94,9.75,1588746809
Sittwe,MM,20.15,92.9,88.02,66,1,14.94,1588746809
Greenwood,US,34.17,-82.12,64.99,93,1,10.29,1588746809
Annau,TM,37.89,58.52,80.6,47,20,9.17,1588746810
Kendari,ID,-3.94,122.5,87.1,69,80,3.89,1588746811
Bhachāu,IN,23.28,70.35,108.97,10,0,10.78,1588746811
Riihimäki,FI,60.74,24.78,51.01,46,100,10.29,1588746811
Emerald,AU,-23.53,148.17,80.6,34,6,14.99,1588746811
Tukan,RU,53.84,57.46,66.79,34,0,6.78,1588746812
Al Bardīyah,LY,31.76,25.09,65.26,59,0,10.78,1588746812
Peniche,PT,39.36,-9.38,57.0,91,83,3.89,1588746812
Akureyri,IS,65.68,-18.09,41.0,56,96,5.82,1588746812
Varhaug,NO,58.61,5.65,46.4,81,75,8.05,1588746812
Kumul,CN,42.8,93.45,58.96,47,100,22.28,1588746813
Cap Malheureux,MU,-19.98,57.61,82.0,71,2,10.0,1588746813
Kasongo,CD,-4.45,26.67,76.53,83,79,3.74,1588746813
Port Antonio,JM,18.18,-76.46,82.4,74,20,8.05,1588746813
Pará de Minas,BR,-19.86,-44.61,64.4,82,98,2.28,1588746814
Trofors,NO,65.53,13.41,35.6,87,75,9.17,1588746814
Hamilton,US,39.18,-84.53,43.0,81,90,12.75,1588746610
Cape Canaveral,US,28.41,-80.6,75.99,88,1,3.36,1588746603
Panabá,MX,21.28,-88.27,75.42,90,99,4.38,1588746815
Zaozyornoye,UA,45.16,33.28,60.3,72,0,9.78,1588746815
Mtambile,TZ,-5.38,39.7,81.41,82,100,11.74,1588746815
Atasū,KZ,48.68,71.64,60.51,30,0,11.21,1588746816
Rapid Valley,US,44.06,-103.15,42.01,76,1,3.36,1588746816
Half Moon Bay,US,37.46,-122.43,57.2,67,1,9.17,1588746816
Beira,MZ,-19.84,34.84,75.2,78,40,5.82,1588746817
Emba,KZ,48.83,58.14,67.87,29,51,17.36,1588746817
Matagami,CA,49.75,-77.63,19.4,85,1,2.24,1588746817
Pinawa,CA,50.15,-95.88,36.9,83,0,3.47,1588746817
Singkang,MY,2.1,102.8,89.6,70,20,3.36,1588746818
Atakpamé,TG,7.53,1.13,77.45,84,100,4.63,1588746818
Tayport,GB,56.45,-2.88,41.0,93,31,6.93,1588746818
Chapais,CA,49.78,-74.85,21.2,79,1,3.36,1588746818
Starachowice,PL,51.04,21.07,43.0,94,100,17.0,1588746819
Tizimín,MX,21.15,-88.15,74.48,93,100,3.29,1588746819
Kloulklubed,PW,7.04,134.26,80.6,88,90,14.99,1588746819
Kamaishi,JP,39.27,141.88,53.6,81,75,5.82,1588746820
Kunyang,CN,27.67,120.57,72.63,77,100,7.81,1588746732
Lunéville,FR,48.6,6.5,55.4,57,77,8.05,1588746820
Saint-Joseph,RE,-21.37,55.62,81.0,69,20,3.36,1588746820
Requena,ES,39.49,-1.1,62.01,64,23,3.85,1588746820
Montagnana,IT,45.23,11.46,61.0,85,100,1.99,1588746821
Sandwick,GB,60.0,-1.25,48.2,81,75,12.75,1588746821
Sibu,MY,2.3,111.82,91.4,63,75,3.36,1588746821
Plouzané,FR,48.38,-4.62,53.6,93,90,3.36,1588746606
Paso de Carrasco,UY,-34.86,-56.05,55.4,62,75,16.11,1588746822
Batagay,RU,67.63,134.63,35.8,80,97,3.36,1588746822
Mahibadhoo,MV,3.78,72.97,84.02,81,100,12.95,1588746822
